[
  { "label": "서울특별시 강남구 역삼동", "code": "11680107", "lat": 37.495, "lng": 127.036, "level": "dong" },
  { "label": "서울특별시 강남구 삼성동", "code": "11680105", "lat": 37.514, "lng": 127.056, "level": "dong" },
  { "label": "서울특별시 강남구 청담동", "code": "11680101", "lat": 37.524, "lng": 127.049, "level": "dong" },
  { "label": "서울특별시 강남구 신사동", "code": "11680102", "lat": 37.524, "lng": 127.020, "level": "dong" },
  { "label": "서울특별시 강남구 논현동", "code": "11680103", "lat": 37.511, "lng": 127.021, "level": "dong" },
  { "label": "서울특별시 강남구 압구정동", "code": "11680104", "lat": 37.527, "lng": 127.028, "level": "dong" },
  { "label": "서울특별시 강남구", "code": "11680", "lat": 37.517, "lng": 127.047, "level": "gu" },
  { "label": "서울특별시 서초구", "code": "11620", "lat": 37.484, "lng": 127.032, "level": "gu" },
  { "label": "서울특별시 마포구", "code": "11440", "lat": 37.566, "lng": 126.902, "level": "gu" },
  { "label": "수원시 장안구", "code": "41111", "lat": 37.303, "lng": 127.010, "level": "gu" },
  { "label": "수원시 권선구", "code": "41113", "lat": 37.257, "lng": 127.028, "level": "gu" },
  { "label": "수원시 팔달구", "code": "41115", "lat": 37.282, "lng": 127.016, "level": "gu" },
  { "label": "수원시 영통구", "code": "41117", "lat": 37.259, "lng": 127.046, "level": "gu" },
  { "label": "수원시 장안구 파장동", "code": "41111101", "lat": 37.303, "lng": 127.010, "level": "dong" },
  { "label": "수원시 장안구 지동", "code": "41111102", "lat": 37.305, "lng": 127.012, "level": "dong" },
  { "label": "수원시 권선구 세류동", "code": "41113101", "lat": 37.257, "lng": 127.028, "level": "dong" },
  { "label": "수원시 팔달구 매교동", "code": "41115101", "lat": 37.282, "lng": 127.016, "level": "dong" },
  { "label": "부산광역시 해운대구", "code": "26350", "lat": 35.163, "lng": 129.163, "level": "gu" },
  { "label": "부산광역시 해운대구 우동", "code": "26350101", "lat": 35.163, "lng": 129.163, "level": "dong" },
  { "label": "대구광역시 중구", "code": "27110", "lat": 35.866, "lng": 128.601, "level": "gu" },
  { "label": "인천광역시 연수구", "code": "28185", "lat": 37.410, "lng": 126.649, "level": "gu" },
  { "label": "광주광역시 서구", "code": "29170", "lat": 35.154, "lng": 126.852, "level": "gu" },
  { "label": "대전광역시 유성구", "code": "30230", "lat": 36.362, "lng": 127.356, "level": "gu" },
  { "label": "울산광역시 남구", "code": "31140", "lat": 35.543, "lng": 129.329, "level": "gu" },
  { "label": "세종특별자치시", "code": "36110", "lat": 36.480, "lng": 127.289, "level": "si" },
  { "label": "경기도 성남시", "code": "41285", "lat": 37.444, "lng": 127.138, "level": "si" },
  { "label": "경기도 고양시", "code": "41281", "lat": 37.658, "lng": 126.832, "level": "si" },
  { "label": "경기도 용인시", "code": "41461", "lat": 37.241, "lng": 127.177, "level": "si" },
  { "label": "경기도 안산시", "code": "41271", "lat": 37.322, "lng": 126.831, "level": "si" },
  { "label": "경기도 안양시", "code": "41273", "lat": 37.394, "lng": 126.957, "level": "si" },
  { "label": "경기도 평택시", "code": "41275", "lat": 36.992, "lng": 127.112, "level": "si" },
  { "label": "경기도 시흥시", "code": "41390", "lat": 37.380, "lng": 126.803, "level": "si" },
  { "label": "경기도 김포시", "code": "41570", "lat": 37.615, "lng": 126.715, "level": "si" },
  { "label": "경기도 하남시", "code": "41450", "lat": 37.539, "lng": 127.205, "level": "si" },
  { "label": "경기도 광주시", "code": "41610", "lat": 37.429, "lng": 127.255, "level": "si" },
  { "label": "경기도 여주시", "code": "41630", "lat": 37.298, "lng": 127.637, "level": "si" },
  { "label": "경기도 오산시", "code": "41370", "lat": 37.149, "lng": 127.077, "level": "si" },
  { "label": "경기도 이천시", "code": "41500", "lat": 37.272, "lng": 127.435, "level": "si" },
  { "label": "경기도 안성시", "code": "41550", "lat": 37.008, "lng": 127.279, "level": "si" },
  { "label": "경기도 포천시", "code": "41650", "lat": 37.894, "lng": 127.200, "level": "si" },
  { "label": "경기도 의정부시", "code": "41150", "lat": 37.738, "lng": 127.034, "level": "si" },
  { "label": "경기도 양주시", "code": "41630", "lat": 37.785, "lng": 127.045, "level": "si" },
  { "label": "경기도 구리시", "code": "41310", "lat": 37.594, "lng": 127.129, "level": "si" },
  { "label": "경기도 남양주시", "code": "41360", "lat": 37.636, "lng": 127.216, "level": "si" },
  { "label": "경기도 과천시", "code": "41290", "lat": 37.429, "lng": 126.987, "level": "si" },
  { "label": "경기도 의왕시", "code": "41430", "lat": 37.345, "lng": 126.948, "level": "si" },
  { "label": "경기도 군포시", "code": "41410", "lat": 37.362, "lng": 126.935, "level": "si" },
  { "label": "경기도 하남시", "code": "41450", "lat": 37.539, "lng": 127.205, "level": "si" },
  { "label": "경기도 광주시", "code": "41610", "lat": 37.429, "lng": 127.255, "level": "si" },
  { "label": "경기도 여주시", "code": "41630", "lat": 37.298, "lng": 127.637, "level": "si" },
  { "label": "경기도 오산시", "code": "41370", "lat": 37.149, "lng": 127.077, "level": "si" },
  { "label": "경기도 이천시", "code": "41500", "lat": 37.272, "lng": 127.435, "level": "si" },
  { "label": "경기도 안성시", "code": "41550", "lat": 37.008, "lng": 127.279, "level": "si" },
  { "label": "경기도 포천시", "code": "41650", "lat": 37.894, "lng": 127.200, "level": "si" },
  { "label": "경기도 의정부시", "code": "41150", "lat": 37.738, "lng": 127.034, "level": "si" },
  { "label": "경기도 양주시", "code": "41630", "lat": 37.785, "lng": 127.045, "level": "si" },
  { "label": "경기도 구리시", "code": "41310", "lat": 37.594, "lng": 127.129, "level": "si" },
  { "label": "경기도 남양주시", "code": "41360", "lat": 37.636, "lng": 127.216, "level": "si" },
  { "label": "경기도 과천시", "code": "41290", "lat": 37.429, "lng": 126.987, "level": "si" },
  { "label": "경기도 의왕시", "code": "41430", "lat": 37.345, "lng": 126.948, "level": "si" },
  { "label": "경기도 군포시", "code": "41410", "lat": 37.362, "lng": 126.935, "level": "si" }
]
